City_ID,City,Country,Max Temp,Current Description,Lat,Lng,Hotel Name
2,Atuona,PF,78.64,clear sky,-9.8,-139.0333,Villa Enata
6,Sao Filipe,CV,75.13,broken clouds,14.8961,-24.4956,Tortuga B&B
9,Tadine,NC,76.93,broken clouds,-21.55,167.8833,
10,Bambous Virieux,MU,81.0,light rain,-20.3428,57.7575,Casa Tia Villa
11,Raga,SS,77.88,broken clouds,8.4596,25.678,
15,Puerto Suarez,BO,89.6,broken clouds,-18.95,-57.8,Hotel casa real
16,Isangel,VU,75.2,few clouds,-19.55,169.2667,Volcano Sea View Tree House
18,Arraial Do Cabo,BR,89.6,clear sky,-22.9661,-42.0278,Pousada Porto Praia
19,Uchiza,PE,84.69,scattered clouds,-8.4592,-76.4633,Hotel San Pedro
20,Rikitea,PF,79.68,overcast clouds,-23.1203,-134.9692,Pension Maro'i
29,San Pedro De Macoris,DO,87.8,few clouds,18.4616,-69.2972,Apartahotel Guaraguao
31,Vaini,TO,77.0,light rain,-21.2,-175.2,Keleti Beach Resort
32,Puerto Ayora,EC,84.2,light rain,-0.7393,-90.3518,Castillo Galapagos
44,Cidreira,BR,80.35,overcast clouds,-30.1811,-50.2056,Hotel Castelo
46,Hithadhoo,MV,81.19,broken clouds,-0.6,73.0833,Scoop Guest House
48,Inhambane,MZ,80.6,few clouds,-23.865,35.3833,Oceano
57,Matamoros,MX,77.0,few clouds,25.5333,-103.25,Quinta Belem
59,Butaritari,KI,80.49,overcast clouds,3.0707,172.7902,Isles Sunset Lodge
60,Verrettes,HT,84.2,few clouds,19.05,-72.4667,"La Verrettienne,Hôtel/Restaurant/Club"
61,Vila Velha,BR,86.0,few clouds,-20.3297,-40.2925,Hotel Vitória Palace
62,Puerto Colombia,CO,84.2,clear sky,10.9878,-74.9547,Hotel El Emigrante
63,Quelimane,MZ,82.4,broken clouds,-17.8786,36.8883,Hotel Flamingo
65,Poum,NC,79.18,clear sky,-20.2333,164.0167,Gîte kajeon
72,Sao Joao Da Barra,BR,84.2,clear sky,-21.6403,-41.0511,Pousada Porto De Canoas
89,Kudahuvadhoo,MV,81.3,scattered clouds,2.6708,72.8944,Niyama Private Islands Maldives
90,Itaituba,BR,88.72,overcast clouds,-4.2761,-55.9836,Hotel Campos
91,Moerai,PF,80.55,clear sky,-22.4333,-151.3333,Le Manotel
98,Chuy,UY,78.46,clear sky,-33.6971,-53.4616,Nuevo Hotel Plaza
99,Tanete,ID,75.29,overcast clouds,-3.9443,119.7848,Wisma Tri Multi
100,Katiola,CI,86.0,clear sky,8.1333,-5.1,Kakoumani
101,Sinnamary,GF,78.31,overcast clouds,5.3833,-52.95,ALETHEIA Appartement Sinnamary
102,Labuhan,ID,77.58,light rain,-6.8844,112.2051,PT PPI Lamongan Tambak C
110,Pedernales,DO,79.84,clear sky,18.0384,-71.744,Hotel Costa Marina
114,Avarua,CK,84.2,light rain,-21.2078,-159.775,Paradise Inn
122,Mogadishu,SO,76.71,clear sky,2.0371,45.3438,Hotel Juba
124,Mount Isa,AU,80.6,overcast clouds,-20.7333,139.5,ibis Styles Mt Isa Verona
136,Caraballeda,VE,86.0,scattered clouds,10.6112,-66.8522,Hotel 15 Letras
144,Mahebourg,MU,80.6,light rain,-20.4081,57.7,Shandrani Beachcomber Resort & Spa
145,Geraldton,AU,82.4,clear sky,-28.7667,114.6,Broadwater Mariner Resort
151,Cabo San Lucas,MX,82.0,clear sky,22.8909,-109.9124,Hotel Tesoro Los Cabos
154,Georgetown,MY,77.0,few clouds,5.4112,100.3354,Cititel Penang
160,Bengkulu,ID,75.58,light rain,-3.8004,102.2655,Grage Hotel Bengkulu
164,Hualmay,PE,75.87,clear sky,-11.0964,-77.6139,Hotel Villa Kitzia Huacho
165,Port Hedland,AU,80.6,few clouds,-20.3167,118.5667,The Esplanade Hotel
171,Porto Nacional,BR,86.0,scattered clouds,-10.7081,-48.4172,Vila Real Hotel
173,Padang,ID,75.2,light rain,-0.9492,100.3543,Mercure Padang
176,Nuevitas,CU,75.2,scattered clouds,21.5453,-77.2644,Hotel Caonaba
179,Souillac,MU,80.6,light rain,-20.5167,57.5167,Shanti Maurice Resort & Spa
190,Ocotal,NI,81.77,scattered clouds,13.6321,-86.4752,Hotel Mirador
197,Carnarvon,AU,78.8,clear sky,-24.8667,113.6333,Hospitality Carnarvon
198,Lorengau,PG,82.24,overcast clouds,-2.0226,147.2712,Lorengau Harbourside Hotel
199,Ogbomosho,NG,87.8,clear sky,8.133,4.25,Living Soul Garden Hotel
200,Porto Walter,BR,82.89,clear sky,-8.2686,-72.7439,Secretaria de saúde
203,Mar Del Plata,AR,80.6,broken clouds,-38.0023,-57.5575,Gran Hotel Mar del Plata
206,Tabou,CI,78.03,broken clouds,4.423,-7.3528,hotêl doufoulougou
209,Loiza,PR,80.6,scattered clouds,18.4313,-65.8802,Malibu Beachfront
228,Saint-Philippe,RE,78.8,clear sky,-21.3585,55.7679,"Chambres d'hôte ""La Trinité"""
229,Marquelia,MX,86.81,broken clouds,16.5833,-98.8167,Hotel Chavez
231,Mana,GF,78.3,overcast clouds,5.6592,-53.7767,LE SAMANA
240,Pimentel,PE,80.6,broken clouds,-6.8367,-79.9342,Casona Del Muelle
246,Santa Maria Da Boa Vista,BR,88.88,overcast clouds,-8.8078,-39.8256,Fênix Hotel e Restaurante
247,Esmeralda,CU,75.2,scattered clouds,21.8525,-78.1169,Centro de Pioneros Exploradores
248,Cayenne,GF,78.8,light rain,4.9333,-52.3333,Hôtel Le Dronmi
257,Ranot,TH,78.84,overcast clouds,7.7777,100.3213,Pakbanglake resort ปากบางเลค รีสอร์ท
263,San Gregorio,PH,77.0,overcast clouds,14.0297,121.2639,Royal Palm Paradise Resort and Spa
268,Brumadinho,BR,86.0,few clouds,-20.1433,-44.1997,Ville de Montagne Hotel
269,Pauini,BR,78.37,overcast clouds,-7.7136,-66.9764,Casa do Kiwliks
271,Kontagora,NG,83.17,few clouds,10.3999,5.4695,City Gate Inn
275,Boa Esperanca,BR,79.74,overcast clouds,-21.09,-45.5658,Hotel do Lago
280,Kulhudhuffushi,MV,80.56,clear sky,6.6221,73.07,Haajy Guest House 1
281,Olinda,BR,80.6,broken clouds,-8.0089,-34.8553,Flat Quatro Rodas Olinda
293,Kavaratti,IN,80.37,clear sky,10.5669,72.642,Hotels in Lakshadweep Islands
297,Balabac,PH,80.06,scattered clouds,7.9868,117.0645,Sing and Swing Lodge
299,Kavieng,PG,82.76,overcast clouds,-2.5744,150.7967,Nusa Island Retreat
301,Pisco,PE,78.8,clear sky,-13.7,-76.2167,Hotel San Isidro Oficial
309,Pedasi,PA,82.27,overcast clouds,7.5333,-80.0333,Selina Pedasi
322,Moron,AR,86.0,clear sky,-34.6534,-58.6198,Hotel Morón
323,Oistins,BB,82.4,few clouds,13.0667,-59.5333,Butterfly Beach Hotel
328,Paita,PE,82.4,broken clouds,-5.0892,-81.1144,Hotel Náutico de Paita
329,Djibo,BF,76.89,clear sky,14.1022,-1.6306,Centre Des Ressources DPENA
332,Abomey,BJ,81.3,overcast clouds,7.1829,1.9912,Residence Hotel Marie Emmanuella
333,Kinkala,CG,84.2,light rain,-4.3614,14.7644,Hotel la Pepeche Kinkala
334,Muisne,EC,84.2,light rain,0.6,-80.0333,Quinta Samay
335,Vallenar,CL,84.69,clear sky,-28.5708,-70.7581,Humacao Bed & Breakfast
339,Hambantota,LK,76.26,overcast clouds,6.1241,81.1185,Bungalow 63
344,Cairns,AU,77.0,light rain,-16.9167,145.7667,Mantra Trilogy Cairns
345,Tiruppuvanam,IN,77.0,mist,9.8333,78.2667,Kali amam kovil
346,San Andres,CO,86.0,few clouds,12.5847,-81.7006,Hotel Arena Blanca
357,Faanui,PF,80.96,scattered clouds,-16.4833,-151.75,Bora-Bora Pearl Beach Resort & Spa
358,Corrente,BR,78.78,overcast clouds,-3.7367,-43.3394,Chapadinhense Hotel
361,San Cristobal,VE,86.0,scattered clouds,7.7669,-72.225,Pirineos
368,Viana,BR,86.0,few clouds,-20.3903,-40.4961,Sítio Gava
374,Varkkallai,IN,78.8,mist,8.7341,76.7067,SPOT ON 72723 Pathanjali Ayurveda Yoga Centre( Dreams Beach Resort)
377,San Policarpo,PH,77.99,overcast clouds,12.1791,125.5072,JM Lodge
381,Anloga,GH,82.4,light rain,5.7947,0.8973,Pin Drop Hotel
384,Vaitape,PF,80.98,scattered clouds,-16.5167,-151.75,Conrad Bora Bora Nui
388,Farafangana,MG,78.28,light rain,-22.8167,47.8333,Miarina
389,Areia Branca,BR,89.6,scattered clouds,-4.9561,-37.1369,Areia Branca Apart Hotel
391,Itaueira,BR,85.41,overcast clouds,-7.6033,-43.0256,Pousada e Restaurante Cheiro e Sabor
392,Cabo Rojo,PR,82.0,few clouds,18.0866,-67.1457,Hotel Perichi's
393,Omboue,GA,78.48,light rain,-1.5746,9.2618,Hotel Olako
394,Kinshasa,CD,84.2,light rain,-4.3246,15.3215,Star Hotel II
398,Itarema,BR,82.78,light rain,-2.9248,-39.9167,"Sea Lounge! Bar, Club & Restaurant"
401,Port Blair,IN,79.02,overcast clouds,11.6667,92.75,Welcomhotel Bay Island Port Blair
404,Berberati,CF,75.63,clear sky,4.2612,15.7922,Prince Virgile ASSOMO-MOMORI
409,Bairiki,KI,80.6,few clouds,1.3292,172.9752,Tarawa Boutique Hotel
412,Praia,CV,75.2,clear sky,14.9215,-23.5087,LT Aparthotel
413,Bull Savanna,JM,78.46,scattered clouds,17.8868,-77.5902,Big Red's
415,Puerto Escondido,MX,86.0,scattered clouds,15.85,-97.0667,Aldea del Bazar Hotel and Spa
416,Quatre Cocos,MU,81.0,light rain,-20.2078,57.7625,Emeraude Beach Attitude Hotel
418,Bara,NG,77.79,clear sky,10.3744,10.7288,
419,Gamba,GA,78.6,overcast clouds,-2.65,10.0,
420,Media Luna,CU,78.64,clear sky,20.1419,-77.435,Casa particular Pedro y Tamara
422,Dagana,MR,89.6,clear sky,16.5165,-15.5068,Quartier Dille koumba fatim thiam
425,Belmonte,BR,84.2,broken clouds,-15.8631,-38.8828,Pousada Monte Carmelo O Pão
432,Moroni,KM,80.56,moderate rain,-11.7022,43.2551,Hotel les Arcades
434,Alyangula,AU,78.8,scattered clouds,-13.8483,136.4192,Groote Eylandt Lodge
436,Kahului,US,75.2,scattered clouds,20.8947,-156.47,Maui Seaside Hotel
443,Salaga,GH,88.56,overcast clouds,8.5508,-0.5188,Bore Nada Guest House
446,Aitape,PG,79.14,heavy intensity rain,-3.1374,142.3475,
449,Cockburn Town,TC,75.2,scattered clouds,21.4612,-71.1419,Osprey Beach Hotel
452,Diamantino,BR,85.55,moderate rain,-14.4086,-56.4461,Hotel Delta
453,Lazaro Cardenas,MX,83.57,overcast clouds,17.9583,-102.2,Collection O Hotel Quinta Antigua
458,La Asuncion,VE,79.2,few clouds,11.0333,-63.8628,Colinas de Matasiete
462,Ixtapa,MX,78.8,few clouds,20.7,-105.2,Container Inn Puerto Vallarta
464,Tubuala,PA,88.0,scattered clouds,9.5167,-79.0333,Río Nabagana
465,Harper,LR,78.31,light rain,4.375,-7.7169,Screensaver
468,Karaton,ID,78.01,scattered clouds,-6.3424,106.1045,Parkir Mobil Wisata CAS Water Park
469,Rosario,AR,87.01,broken clouds,-32.9468,-60.6393,Holiday Inn Rosario
471,Banda Aceh,ID,77.74,broken clouds,5.5577,95.3222,OYO 884 Rumoh PMI Hotel
478,Dhidhdhoo,MV,80.58,clear sky,6.8833,73.1,Dhidhoo beach
481,Chokwe,MZ,75.78,clear sky,-24.5333,32.9833,Complexo Sonho Real
486,Cap Malheureux,MU,81.0,light rain,-19.9842,57.6142,Pereybere Hotel & Spa
489,Saint-Georges,GD,86.0,few clouds,12.0564,-61.7485,Siesta Hotel
490,Bathsheba,BB,82.4,few clouds,13.2167,-59.5167,Atlantis Hotel
493,Gambela,ET,87.13,overcast clouds,8.25,34.5833,Solomon Debebe Hotel
496,Alugan,PH,77.45,overcast clouds,12.2188,125.4808,JM Lodge
497,Batticaloa,LK,76.6,light rain,7.7102,81.6924,Grand Star Guest House
504,Buala,SB,80.67,light rain,-8.145,159.5921,Maringe Lagoon Lodge
511,Coahuayana,MX,87.8,scattered clouds,18.7333,-103.6833,Hotel Los Arcos
512,Alta Gracia,AR,88.0,broken clouds,-31.6529,-64.4283,Hotel Ritz
515,Banes,CU,77.0,broken clouds,20.9625,-75.7186,Hostal Iván y yailet
517,Mineiros,BR,77.85,overcast clouds,-17.5694,-52.5511,Pilões Palace Hotel
520,Kloulklubed,PW,80.8,overcast clouds,7.0419,134.2556,Storyboard Beach Resort
522,San Rafael,AR,85.42,overcast clouds,-34.6177,-68.3301,Hotel San Rafael
523,Yulara,AU,78.8,broken clouds,-25.2406,130.9889,Desert Gardens Hotel - Ayers Rock Resort
526,Alta Floresta,BR,87.8,light rain,-9.8756,-56.0861,Floresta Amazonica Hotel
528,Sai Buri,TH,75.61,overcast clouds,6.7013,101.6168,ร้าน​ เวดดิ้ง
533,Bintulu,MY,77.0,light rain,3.1667,113.0333,900 Boutique INN
534,Grand Baie,MU,81.0,light rain,-20.0182,57.5802,Trou aux Biches Beachcomber Golf Resort & Spa
536,Porto Novo,BJ,84.2,scattered clouds,6.4965,2.6036,Tour Eiffel Hotel Benin
542,Mabaruma,GY,79.83,overcast clouds,8.2,-59.7833,
545,Bubaque,GW,78.58,clear sky,11.2833,-15.8333,"Casa Dora, Bubaque"
552,Ternate,ID,79.52,broken clouds,0.8,127.4,Grand Dafam Bela Ternate
553,Bitkine,TD,75.25,clear sky,11.9801,18.2138,
561,Mitsamiouli,KM,82.89,overcast clouds,-11.3847,43.2844,Foyer ADM
562,Noumea,NC,79.0,few clouds,-22.2763,166.4572,Hôtel Le Lagon
564,Sao Felix Do Xingu,BR,85.69,few clouds,-6.6447,-51.995,Rio Xingu Camping
565,Santa Maria,BR,78.8,moderate rain,-29.6842,-53.8069,Hotel Morotin
567,Aparecida Do Taboado,BR,86.23,moderate rain,-20.0867,-51.0936,Aritana
577,Araceli,PH,79.0,broken clouds,10.5529,119.9913,JBryan Traveler's Inn
583,Vao,NC,75.79,overcast clouds,-22.6667,167.4833,Hotel Kou-Bugny
587,Yenagoa,NG,80.73,few clouds,4.9247,6.2642,Aridolf Resort Wellness and Spa
588,Alofi,NU,77.0,heavy intensity rain,-19.0595,-169.9187,Taloa Heights
595,Atakpame,TG,81.66,broken clouds,7.5333,1.1333,Hôtel Luxembourg Atakpame
597,Tamale,GH,87.91,scattered clouds,9.4008,-0.8393,Tap Hotel
599,Tarauaca,BR,80.08,overcast clouds,-8.1614,-70.7656,Flat Temporada
605,Rocha,UY,79.95,overcast clouds,-34.4833,-54.3333,Beleza Pura B&B
607,Wajir,KE,87.46,clear sky,1.7471,40.0573,Al-bustan Hotel And Restaurant.
614,Mahajanga,MG,77.0,moderate rain,-15.7167,46.3167,Restaurant Greedy Coco Lodge Majunga
616,Yendi,GH,86.4,clear sky,9.4427,-0.0099,Eyarro Lodge
620,Marechal Deodoro,BR,78.8,moderate rain,-9.7103,-35.895,santoriniflats
626,Garissa,KE,81.1,clear sky,-0.4536,39.6401,Sharif Plaza Hotel
628,Ati,TD,76.53,clear sky,13.2154,18.3353,
629,Namatanai,PG,81.34,light rain,-3.6667,152.4333,Namatanai Hotel
631,Acajutla,SV,87.85,clear sky,13.5928,-89.8275,asi es
634,Voh,NC,75.9,clear sky,-20.9667,164.7,Le gîte du Koniambo
637,Sorong,ID,78.76,overcast clouds,-0.8833,131.25,The Waigo Hotel
638,Le Vauclin,MQ,84.2,scattered clouds,14.5452,-60.8388,Hôtel Cap Macabou
639,Ambon,ID,80.64,overcast clouds,-3.6954,128.1814,Swiss-Belhotel Ambon
641,Ranong,TH,75.2,overcast clouds,9.9658,98.6348,Tinidee Hotel@Ranong
643,Tignoan,PH,75.99,scattered clouds,14.5647,121.6197,Real Coast and Surf
645,Maragogi,BR,79.88,overcast clouds,-9.0122,-35.2225,Salinas do Maragogi All Inclusive Resort
649,San Carlos De Bariloche,AR,75.99,clear sky,-41.1456,-71.3082,Hotel Patagonia
654,Acapulco,MX,86.0,broken clouds,16.8634,-99.8901,HS Hotsson Smart Acapulco
657,Karratha,AU,81.57,light rain,-20.7377,116.8463,ibis Styles Karratha
659,Pampierstad,ZA,76.46,overcast clouds,-27.7832,24.6877,BAROLONG METHODIST CHURCH
661,Daru,PG,77.23,moderate rain,-9.0763,143.2092,Daru Lodge
666,Uribia,CO,88.57,scattered clouds,11.7139,-72.266,Hotel Uribia
679,Hobyo,SO,76.24,clear sky,5.3505,48.5268,Halane Hotel and Restaurent
686,Pitimbu,BR,82.4,broken clouds,-7.4706,-34.8086,Reserva do Abiaí
688,Banikoara,BJ,79.32,clear sky,11.2985,2.4386,Hôtel de l'UCom CVPC
692,Bahia Blanca,AR,83.55,light rain,-38.7196,-62.2724,Hotel Argos
